{
    "type": "FeatureCollection",
    "name": "scuole_geocodificate",
    "crs": {
        "type": "name",
        "properties": {
            "name": "urn:ogc:def:crs:EPSG::4326"
        }
    },
    "features": [
        {
            "type": "Feature",
            "properties": {
                "CODICEISTITUTORIFERIMENTO": "RMIC8G300N",
                "DESCRIZIONETIPOLOGIAGRADOISTRUZIONESCUOLA": "SCUOLA PRIMARIA",
                "DESCRIZIONECOMUNE": "ROMA"
            },
            "geometry": {
                "type": "Point",
                "coordinates": [
                    12.4198718,
                    41.9133914
                ]
            }
        },
        {
            "type": "Feature",
            "properties": {
                "CODICEISTITUTORIFERIMENTO": "VTIC80300D",
                "DESCRIZIONETIPOLOGIAGRADOISTRUZIONESCUOLA": "SCUOLA PRIMARIA",
                "DESCRIZIONECOMUNE": "LUBRIANO"
            },
            "geometry": {
                "type": "Point",
                "coordinates": [
                    12.1102665,
                    42.6364644
                ]
            }
        },
        {
            "type": "Feature",
            "properties": {
                "CODICEISTITUTORIFERIMENTO": "RMIC8GD00D",
                "DESCRIZIONETIPOLOGIAGRADOISTRUZIONESCUOLA": "SCUOLA INFANZIA",
                "DESCRIZIONECOMUNE": "ROMA"
            },
            "geometry": {
                "type": "Point",
                "coordinates": [
                    12.5049289,
                    41.8767769
                ]
            }
        },
        {
            "type": "Feature",
            "properties": {
                "CODICEISTITUTORIFERIMENTO": "FRIC814003",
                "DESCRIZIONETIPOLOGIAGRADOISTRUZIONESCUOLA": "SCUOLA PRIMO GRADO",
                "DESCRIZIONECOMUNE": "PASTENA"
            },
            "geometry": {
                "type": "Point",
                "coordinates": [
                    13.4906367,
                    41.4685868
                ]
            }
        },
        {
            "type": "Feature",
            "properties": {
                "CODICEISTITUTORIFERIMENTO": "RMIC855004",
                "DESCRIZIONETIPOLOGIAGRADOISTRUZIONESCUOLA": "SCUOLA PRIMARIA",
                "DESCRIZIONECOMUNE": "ROMA"
            },
            "geometry": {
                "type": "Point",
                "coordinates": [
                    12.671561,
                    41.8562436
                ]
            }
        },
        {
            "type": "Feature",
            "properties": {
                "CODICEISTITUTORIFERIMENTO": "FRIC849002",
                "DESCRIZIONETIPOLOGIAGRADOISTRUZIONESCUOLA": "SCUOLA INFANZIA",
                "DESCRIZIONECOMUNE": "SORA"
            },
            "geometry": {
                "type": "Point",
                "coordinates": [
                    13.6080005,
                    41.721075
                ]
            }
        },
        {
            "type": "Feature",
            "properties": {
                "CODICEISTITUTORIFERIMENTO": "RMIC8CX00E",
                "DESCRIZIONETIPOLOGIAGRADOISTRUZIONESCUOLA": "SCUOLA PRIMO GRADO",
                "DESCRIZIONECOMUNE": "ROMA"
            },
            "geometry": {
                "type": "Point",
                "coordinates": [
                    12.4759925,
                    41.8107778
                ]
            }
        },
        {
            "type": "Feature",
            "properties": {
                "CODICEISTITUTORIFERIMENTO": "RMIC8AL00A",
                "DESCRIZIONETIPOLOGIAGRADOISTRUZIONESCUOLA": "SCUOLA PRIMO GRADO",
                "DESCRIZIONECOMUNE": "ANTICOLI CORRADO"
            },
            "geometry": {
                "type": "Point",
                "coordinates": [
                    12.3102435,
                    42.1965664
                ]
            }
        },
        {
            "type": "Feature",
            "properties": {
                "CODICEISTITUTORIFERIMENTO": "FRIC834008",
                "DESCRIZIONETIPOLOGIAGRADOISTRUZIONESCUOLA": "ISTITUTO COMPRENSIVO",
                "DESCRIZIONECOMUNE": "ROCCASECCA"
            },
            "geometry": {
                "type": "Point",
                "coordinates": [
                    13.6512816,
                    41.5331876
                ]
            }
        },
        {
            "type": "Feature",
            "properties": {
                "CODICEISTITUTORIFERIMENTO": "RMIC8AT005",
                "DESCRIZIONETIPOLOGIAGRADOISTRUZIONESCUOLA": "SCUOLA INFANZIA",
                "DESCRIZIONECOMUNE": "MONTE PORZIO CATONE"
            },
            "geometry": {
                "type": "Point",
                "coordinates": [
                    12.7076586,
                    41.8134093
                ]
            }
        },
        {
            "type": "Feature",
            "properties": {
                "CODICEISTITUTORIFERIMENTO": "RIIC82000E",
                "DESCRIZIONETIPOLOGIAGRADOISTRUZIONESCUOLA": "SCUOLA INFANZIA",
                "DESCRIZIONECOMUNE": "CITTADUCALE"
            },
            "geometry": {
                "type": "Point",
                "coordinates": [
                    12.945745,
                    42.3545637
                ]
            }
        },
        {
            "type": "Feature",
            "properties": {
                "CODICEISTITUTORIFERIMENTO": "RMIC8A9001",
                "DESCRIZIONETIPOLOGIAGRADOISTRUZIONESCUOLA": "SCUOLA PRIMO GRADO",
                "DESCRIZIONECOMUNE": "POMEZIA"
            },
            "geometry": {
                "type": "Point",
                "coordinates": [
                    12.4665068,
                    41.620012
                ]
            }
        },
        {
            "type": "Feature",
            "properties": {
                "CODICEISTITUTORIFERIMENTO": "LTIC81400P",
                "DESCRIZIONETIPOLOGIAGRADOISTRUZIONESCUOLA": "SCUOLA INFANZIA",
                "DESCRIZIONECOMUNE": "SANTI COSMA E DAMIANO"
            },
            "geometry": {
                "type": "Point",
                "coordinates": [
                    13.8335398,
                    41.2891305
                ]
            }
        },
        {
            "type": "Feature",
            "properties": {
                "CODICEISTITUTORIFERIMENTO": "FRIC85200T",
                "DESCRIZIONETIPOLOGIAGRADOISTRUZIONESCUOLA": "SCUOLA INFANZIA",
                "DESCRIZIONECOMUNE": "SAN GIOVANNI INCARICO"
            },
            "geometry": {
                "type": "Point",
                "coordinates": [
                    13.5578697,
                    41.5001694
                ]
            }
        },
        {
            "type": "Feature",
            "properties": {
                "CODICEISTITUTORIFERIMENTO": "RMIC8C9006",
                "DESCRIZIONETIPOLOGIAGRADOISTRUZIONESCUOLA": "SCUOLA INFANZIA",
                "DESCRIZIONECOMUNE": "ARDEA"
            },
            "geometry": {
                "type": "Point",
                "coordinates": [
                    12.5372246,
                    41.6136868
                ]
            }
        },
        {
            "type": "Feature",
            "properties": {
                "CODICEISTITUTORIFERIMENTO": "RMIC847005",
                "DESCRIZIONETIPOLOGIAGRADOISTRUZIONESCUOLA": "ISTITUTO COMPRENSIVO",
                "DESCRIZIONECOMUNE": "ROMA"
            },
            "geometry": {
                "type": "Point",
                "coordinates": [
                    12.4492588,
                    41.8939562
                ]
            }
        },
        {
            "type": "Feature",
            "properties": {
                "CODICEISTITUTORIFERIMENTO": "LTIC80800B",
                "DESCRIZIONETIPOLOGIAGRADOISTRUZIONESCUOLA": "SCUOLA INFANZIA",
                "DESCRIZIONECOMUNE": "ROCCAGORGA"
            },
            "geometry": {
                "type": "Point",
                "coordinates": [
                    13.1519456,
                    41.5250556
                ]
            }
        },
        {
            "type": "Feature",
            "properties": {
                "CODICEISTITUTORIFERIMENTO": "RMIC8AF00D",
                "DESCRIZIONETIPOLOGIAGRADOISTRUZIONESCUOLA": "SCUOLA INFANZIA",
                "DESCRIZIONECOMUNE": "GUIDONIA MONTECELIO"
            },
            "geometry": {
                "type": "Point",
                "coordinates": [
                    12.6225699,
                    41.981959
                ]
            }
        },
        {
            "type": "Feature",
            "properties": {
                "CODICEISTITUTORIFERIMENTO": "RMIC8G5009",
                "DESCRIZIONETIPOLOGIAGRADOISTRUZIONESCUOLA": "SCUOLA PRIMO GRADO",
                "DESCRIZIONECOMUNE": "ROMA"
            },
            "geometry": {
                "type": "Point",
                "coordinates": [
                    12.505053,
                    41.9082571
                ]
            }
        },
        {
            "type": "Feature",
            "properties": {
                "CODICEISTITUTORIFERIMENTO": "RMIC8GB00T",
                "DESCRIZIONETIPOLOGIAGRADOISTRUZIONESCUOLA": "SCUOLA PRIMARIA",
                "DESCRIZIONECOMUNE": "ALBANO LAZIALE"
            },
            "geometry": {
                "type": "Point",
                "coordinates": [
                    12.6556394,
                    41.7252366
                ]
            }
        },
        {
            "type": "Feature",
            "properties": {
                "CODICEISTITUTORIFERIMENTO": "RMIC8B1001",
                "DESCRIZIONETIPOLOGIAGRADOISTRUZIONESCUOLA": "SCUOLA INFANZIA",
                "DESCRIZIONECOMUNE": "ROMA"
            },
            "geometry": {
                "type": "Point",
                "coordinates": [
                    12.4743047,
                    41.7879494
                ]
            }
        },
        {
            "type": "Feature",
            "properties": {
                "CODICEISTITUTORIFERIMENTO": "RMIC8G800R",
                "DESCRIZIONETIPOLOGIAGRADOISTRUZIONESCUOLA": "ISTITUTO COMPRENSIVO",
                "DESCRIZIONECOMUNE": "ROMA"
            },
            "geometry": {
                "type": "Point",
                "coordinates": [
                    12.6016193,
                    41.9462307
                ]
            }
        },
        {
            "type": "Feature",
            "properties": {
                "CODICEISTITUTORIFERIMENTO": "LTIC833004",
                "DESCRIZIONETIPOLOGIAGRADOISTRUZIONESCUOLA": "SCUOLA PRIMO GRADO",
                "DESCRIZIONECOMUNE": "NORMA"
            },
            "geometry": {
                "type": "Point",
                "coordinates": [
                    12.9742198,
                    41.5874326
                ]
            }
        },
        {
            "type": "Feature",
            "properties": {
                "CODICEISTITUTORIFERIMENTO": "RMIC8GZ00L",
                "DESCRIZIONETIPOLOGIAGRADOISTRUZIONESCUOLA": "SCUOLA INFANZIA",
                "DESCRIZIONECOMUNE": "POMEZIA"
            },
            "geometry": {
                "type": "Point",
                "coordinates": [
                    12.4726579,
                    41.6297672
                ]
            }
        },
        {
            "type": "Feature",
            "properties": {
                "CODICEISTITUTORIFERIMENTO": "FRIC826009",
                "DESCRIZIONETIPOLOGIAGRADOISTRUZIONESCUOLA": "SCUOLA PRIMARIA",
                "DESCRIZIONECOMUNE": "PIGNATARO INTERAMNA"
            },
            "geometry": {
                "type": "Point",
                "coordinates": [
                    13.7840977,
                    41.4406061
                ]
            }
        },
        {
            "type": "Feature",
            "properties": {
                "CODICEISTITUTORIFERIMENTO": "VTIC83600R",
                "DESCRIZIONETIPOLOGIAGRADOISTRUZIONESCUOLA": "SCUOLA INFANZIA",
                "DESCRIZIONECOMUNE": "VETRALLA"
            },
            "geometry": {
                "type": "Point",
                "coordinates": [
                    12.0820412,
                    42.3086944
                ]
            }
        },
        {
            "type": "Feature",
            "properties": {
                "CODICEISTITUTORIFERIMENTO": "FRIC850006",
                "DESCRIZIONETIPOLOGIAGRADOISTRUZIONESCUOLA": "SCUOLA INFANZIA",
                "DESCRIZIONECOMUNE": "SORA"
            },
            "geometry": {
                "type": "Point",
                "coordinates": [
                    13.6043102,
                    41.6901247
                ]
            }
        },
        {
            "type": "Feature",
            "properties": {
                "CODICEISTITUTORIFERIMENTO": "RMIC8DR00R",
                "DESCRIZIONETIPOLOGIAGRADOISTRUZIONESCUOLA": "SCUOLA PRIMO GRADO",
                "DESCRIZIONECOMUNE": "PALESTRINA"
            },
            "geometry": {
                "type": "Point",
                "coordinates": [
                    12.8863343,
                    41.8392766
                ]
            }
        },
        {
            "type": "Feature",
            "properties": {
                "CODICEISTITUTORIFERIMENTO": "LTIC83000L",
                "DESCRIZIONETIPOLOGIAGRADOISTRUZIONESCUOLA": "ISTITUTO COMPRENSIVO",
                "DESCRIZIONECOMUNE": "TERRACINA"
            },
            "geometry": {
                "type": "Point",
                "coordinates": [
                    13.240815,
                    41.2877374
                ]
            }
        },
        {
            "type": "Feature",
            "properties": {
                "CODICEISTITUTORIFERIMENTO": "RMIC8EJ00R",
                "DESCRIZIONETIPOLOGIAGRADOISTRUZIONESCUOLA": "SCUOLA PRIMARIA",
                "DESCRIZIONECOMUNE": "ROMA"
            },
            "geometry": {
                "type": "Point",
                "coordinates": [
                    12.5430271,
                    41.94574540000001
                ]
            }
        },
        {
            "type": "Feature",
            "properties": {
                "CODICEISTITUTORIFERIMENTO": "RMIC8F9002",
                "DESCRIZIONETIPOLOGIAGRADOISTRUZIONESCUOLA": "SCUOLA PRIMARIA",
                "DESCRIZIONECOMUNE": "VELLETRI"
            },
            "geometry": {
                "type": "Point",
                "coordinates": [
                    12.7765793,
                    41.6821873
                ]
            }
        },
        {
            "type": "Feature",
            "properties": {
                "CODICEISTITUTORIFERIMENTO": "RMIC8FU00V",
                "DESCRIZIONETIPOLOGIAGRADOISTRUZIONESCUOLA": "SCUOLA PRIMO GRADO",
                "DESCRIZIONECOMUNE": "ROMA"
            },
            "geometry": {
                "type": "Point",
                "coordinates": [
                    12.4329982,
                    41.8830248
                ]
            }
        },
        {
            "type": "Feature",
            "properties": {
                "CODICEISTITUTORIFERIMENTO": "RMIC8C3007",
                "DESCRIZIONETIPOLOGIAGRADOISTRUZIONESCUOLA": "SCUOLA PRIMARIA",
                "DESCRIZIONECOMUNE": "FRASCATI"
            },
            "geometry": {
                "type": "Point",
                "coordinates": [
                    12.6742405,
                    41.8063308
                ]
            }
        },
        {
            "type": "Feature",
            "properties": {
                "CODICEISTITUTORIFERIMENTO": "RMIC8AF00D",
                "DESCRIZIONETIPOLOGIAGRADOISTRUZIONESCUOLA": "SCUOLA PRIMO GRADO",
                "DESCRIZIONECOMUNE": "GUIDONIA MONTECELIO"
            },
            "geometry": {
                "type": "Point",
                "coordinates": [
                    12.628688,
                    41.9805567
                ]
            }
        },
        {
            "type": "Feature",
            "properties": {
                "CODICEISTITUTORIFERIMENTO": "LTIC855001",
                "DESCRIZIONETIPOLOGIAGRADOISTRUZIONESCUOLA": "SCUOLA INFANZIA",
                "DESCRIZIONECOMUNE": "MINTURNO"
            },
            "geometry": {
                "type": "Point",
                "coordinates": [
                    13.701861,
                    41.2561327
                ]
            }
        },
        {
            "type": "Feature",
            "properties": {
                "CODICEISTITUTORIFERIMENTO": "RMIC8B200R",
                "DESCRIZIONETIPOLOGIAGRADOISTRUZIONESCUOLA": "ISTITUTO COMPRENSIVO",
                "DESCRIZIONECOMUNE": "ROMA"
            },
            "geometry": {
                "type": "Point",
                "coordinates": [
                    12.4440693,
                    41.8135132
                ]
            }
        },
        {
            "type": "Feature",
            "properties": {
                "CODICEISTITUTORIFERIMENTO": "RIIC81600V",
                "DESCRIZIONETIPOLOGIAGRADOISTRUZIONESCUOLA": "SCUOLA PRIMARIA",
                "DESCRIZIONECOMUNE": "RIETI"
            },
            "geometry": {
                "type": "Point",
                "coordinates": [
                    12.8524427,
                    42.4158603
                ]
            }
        },
        {
            "type": "Feature",
            "properties": {
                "CODICEISTITUTORIFERIMENTO": "RIIC823002",
                "DESCRIZIONETIPOLOGIAGRADOISTRUZIONESCUOLA": "ISTITUTO COMPRENSIVO",
                "DESCRIZIONECOMUNE": "CONTIGLIANO"
            },
            "geometry": {
                "type": "Point",
                "coordinates": [
                    12.7692088,
                    42.4121165
                ]
            }
        },
        {
            "type": "Feature",
            "properties": {
                "CODICEISTITUTORIFERIMENTO": "RMIC8EG00Q",
                "DESCRIZIONETIPOLOGIAGRADOISTRUZIONESCUOLA": "SCUOLA INFANZIA",
                "DESCRIZIONECOMUNE": "ROMA"
            },
            "geometry": {
                "type": "Point",
                "coordinates": [
                    12.5227769,
                    41.9623802
                ]
            }
        },
        {
            "type": "Feature",
            "properties": {
                "CODICEISTITUTORIFERIMENTO": "FRIC814003",
                "DESCRIZIONETIPOLOGIAGRADOISTRUZIONESCUOLA": "SCUOLA PRIMARIA",
                "DESCRIZIONECOMUNE": "CASTRO DEI VOLSCI"
            },
            "geometry": {
                "type": "Point",
                "coordinates": [
                    13.3951542,
                    41.5158424
                ]
            }
        },
        {
            "type": "Feature",
            "properties": {
                "CODICEISTITUTORIFERIMENTO": "RMIC812006",
                "DESCRIZIONETIPOLOGIAGRADOISTRUZIONESCUOLA": "SCUOLA INFANZIA",
                "DESCRIZIONECOMUNE": "ROMA"
            },
            "geometry": {
                "type": "Point",
                "coordinates": [
                    12.5175182,
                    41.9699742
                ]
            }
        },
        {
            "type": "Feature",
            "properties": {
                "CODICEISTITUTORIFERIMENTO": "RMIC854008",
                "DESCRIZIONETIPOLOGIAGRADOISTRUZIONESCUOLA": "ISTITUTO COMPRENSIVO",
                "DESCRIZIONECOMUNE": "ROMA"
            },
            "geometry": {
                "type": "Point",
                "coordinates": [
                    12.3472377,
                    41.7740405
                ]
            }
        },
        {
            "type": "Feature",
            "properties": {
                "CODICEISTITUTORIFERIMENTO": "LTIC81300V",
                "DESCRIZIONETIPOLOGIAGRADOISTRUZIONESCUOLA": "SCUOLA PRIMARIA",
                "DESCRIZIONECOMUNE": "FORMIA"
            },
            "geometry": {
                "type": "Point",
                "coordinates": [
                    13.6277708,
                    41.2850377
                ]
            }
        },
        {
            "type": "Feature",
            "properties": {
                "CODICEISTITUTORIFERIMENTO": "RMIC8GF005",
                "DESCRIZIONETIPOLOGIAGRADOISTRUZIONESCUOLA": "SCUOLA PRIMARIA",
                "DESCRIZIONECOMUNE": "ROMA"
            },
            "geometry": {
                "type": "Point",
                "coordinates": [
                    12.4338909,
                    41.807733
                ]
            }
        },
        {
            "type": "Feature",
            "properties": {
                "CODICEISTITUTORIFERIMENTO": "FRIC85200T",
                "DESCRIZIONETIPOLOGIAGRADOISTRUZIONESCUOLA": "SCUOLA PRIMO GRADO",
                "DESCRIZIONECOMUNE": "PICO"
            },
            "geometry": {
                "type": "Point",
                "coordinates": [
                    13.5582757,
                    41.450652
                ]
            }
        },
        {
            "type": "Feature",
            "properties": {
                "CODICEISTITUTORIFERIMENTO": "RMIC8AT005",
                "DESCRIZIONETIPOLOGIAGRADOISTRUZIONESCUOLA": "SCUOLA PRIMARIA",
                "DESCRIZIONECOMUNE": "COLONNA"
            },
            "geometry": {
                "type": "Point",
                "coordinates": [
                    12.7520712,
                    41.833292
                ]
            }
        },
        {
            "type": "Feature",
            "properties": {
                "CODICEISTITUTORIFERIMENTO": "RMIC8CA00G",
                "DESCRIZIONETIPOLOGIAGRADOISTRUZIONESCUOLA": "SCUOLA PRIMARIA",
                "DESCRIZIONECOMUNE": "SANTA MARINELLA"
            },
            "geometry": {
                "type": "Point",
                "coordinates": [
                    11.8456659,
                    42.0347677
                ]
            }
        },
        {
            "type": "Feature",
            "properties": {
                "CODICEISTITUTORIFERIMENTO": "FRIC83300C",
                "DESCRIZIONETIPOLOGIAGRADOISTRUZIONESCUOLA": "SCUOLA PRIMARIA",
                "DESCRIZIONECOMUNE": "MONTE SAN GIOVANNI CAMPANO"
            },
            "geometry": {
                "type": "Point",
                "coordinates": [
                    13.5429057,
                    41.6500394
                ]
            }
        },
        {
            "type": "Feature",
            "properties": {
                "CODICEISTITUTORIFERIMENTO": "RMIC8CP00E",
                "DESCRIZIONETIPOLOGIAGRADOISTRUZIONESCUOLA": "SCUOLA PRIMARIA",
                "DESCRIZIONECOMUNE": "ROMA"
            },
            "geometry": {
                "type": "Point",
                "coordinates": [
                    12.6930677,
                    41.9077306
                ]
            }
        },
        {
            "type": "Feature",
            "properties": {
                "CODICEISTITUTORIFERIMENTO": "RMIC8AF00D",
                "DESCRIZIONETIPOLOGIAGRADOISTRUZIONESCUOLA": "ISTITUTO COMPRENSIVO",
                "DESCRIZIONECOMUNE": "GUIDONIA MONTECELIO"
            },
            "geometry": {
                "type": "Point",
                "coordinates": [
                    12.6200049,
                    41.98144560000001
                ]
            }
        },
        {
            "type": "Feature",
            "properties": {
                "CODICEISTITUTORIFERIMENTO": "LTIC855001",
                "DESCRIZIONETIPOLOGIAGRADOISTRUZIONESCUOLA": "SCUOLA INFANZIA",
                "DESCRIZIONECOMUNE": "MINTURNO"
            },
            "geometry": {
                "type": "Point",
                "coordinates": [
                    13.7210299,
                    41.2551211
                ]
            }
        },
        {
            "type": "Feature",
            "properties": {
                "CODICEISTITUTORIFERIMENTO": "FRIC80400C",
                "DESCRIZIONETIPOLOGIAGRADOISTRUZIONESCUOLA": "SCUOLA PRIMARIA",
                "DESCRIZIONECOMUNE": "VICO NEL LAZIO"
            },
            "geometry": {
                "type": "Point",
                "coordinates": [
                    13.3434313,
                    41.7786296
                ]
            }
        },
        {
            "type": "Feature",
            "properties": {
                "CODICEISTITUTORIFERIMENTO": "RMIC81400T",
                "DESCRIZIONETIPOLOGIAGRADOISTRUZIONESCUOLA": "ISTITUTO COMPRENSIVO",
                "DESCRIZIONECOMUNE": "ROMA"
            },
            "geometry": {
                "type": "Point",
                "coordinates": [
                    12.5072981,
                    41.89240909999999
                ]
            }
        },
        {
            "type": "Feature",
            "properties": {
                "CODICEISTITUTORIFERIMENTO": "RMIC8G800R",
                "DESCRIZIONETIPOLOGIAGRADOISTRUZIONESCUOLA": "SCUOLA INFANZIA",
                "DESCRIZIONECOMUNE": "ROMA"
            },
            "geometry": {
                "type": "Point",
                "coordinates": [
                    12.5991194,
                    41.9428333
                ]
            }
        },
        {
            "type": "Feature",
            "properties": {
                "CODICEISTITUTORIFERIMENTO": "FRIC82500D",
                "DESCRIZIONETIPOLOGIAGRADOISTRUZIONESCUOLA": "SCUOLA INFANZIA",
                "DESCRIZIONECOMUNE": "PIEDIMONTE SAN GERMANO"
            },
            "geometry": {
                "type": "Point",
                "coordinates": [
                    13.7568609,
                    41.4989001
                ]
            }
        },
        {
            "type": "Feature",
            "properties": {
                "CODICEISTITUTORIFERIMENTO": "RIIC823002",
                "DESCRIZIONETIPOLOGIAGRADOISTRUZIONESCUOLA": "SCUOLA INFANZIA",
                "DESCRIZIONECOMUNE": "ROCCANTICA"
            },
            "geometry": {
                "type": "Point",
                "coordinates": [
                    12.6951684,
                    42.3202664
                ]
            }
        },
        {
            "type": "Feature",
            "properties": {
                "CODICEISTITUTORIFERIMENTO": "VTIC812008",
                "DESCRIZIONETIPOLOGIAGRADOISTRUZIONESCUOLA": "SCUOLA INFANZIA",
                "DESCRIZIONECOMUNE": "CAPRAROLA"
            },
            "geometry": {
                "type": "Point",
                "coordinates": [
                    12.2430942,
                    42.3236181
                ]
            }
        },
        {
            "type": "Feature",
            "properties": {
                "CODICEISTITUTORIFERIMENTO": "RMIC8FU00V",
                "DESCRIZIONETIPOLOGIAGRADOISTRUZIONESCUOLA": "SCUOLA INFANZIA",
                "DESCRIZIONECOMUNE": "ROMA"
            },
            "geometry": {
                "type": "Point",
                "coordinates": [
                    12.4424913,
                    41.8663166
                ]
            }
        },
        {
            "type": "Feature",
            "properties": {
                "CODICEISTITUTORIFERIMENTO": "RMIC8EG00Q",
                "DESCRIZIONETIPOLOGIAGRADOISTRUZIONESCUOLA": "SCUOLA PRIMO GRADO",
                "DESCRIZIONECOMUNE": "ROMA"
            },
            "geometry": {
                "type": "Point",
                "coordinates": [
                    12.5180762,
                    41.95791880000001
                ]
            }
        },
        {
            "type": "Feature",
            "properties": {
                "CODICEISTITUTORIFERIMENTO": "FRIC81600P",
                "DESCRIZIONETIPOLOGIAGRADOISTRUZIONESCUOLA": "SCUOLA INFANZIA",
                "DESCRIZIONECOMUNE": "COLFELICE"
            },
            "geometry": {
                "type": "Point",
                "coordinates": [
                    13.6176867,
                    41.5552359
                ]
            }
        },
        {
            "type": "Feature",
            "properties": {
                "CODICEISTITUTORIFERIMENTO": "RMIC8C200B",
                "DESCRIZIONETIPOLOGIAGRADOISTRUZIONESCUOLA": "SCUOLA INFANZIA",
                "DESCRIZIONECOMUNE": "COLLEFERRO"
            },
            "geometry": {
                "type": "Point",
                "coordinates": [
                    13.0069557,
                    41.7302048
                ]
            }
        },
        {
            "type": "Feature",
            "properties": {
                "CODICEISTITUTORIFERIMENTO": "LTIC83000L",
                "DESCRIZIONETIPOLOGIAGRADOISTRUZIONESCUOLA": "SCUOLA INFANZIA",
                "DESCRIZIONECOMUNE": "TERRACINA"
            },
            "geometry": {
                "type": "Point",
                "coordinates": [
                    13.2339986,
                    41.2883156
                ]
            }
        },
        {
            "type": "Feature",
            "properties": {
                "CODICEISTITUTORIFERIMENTO": "RMIC8EJ00R",
                "DESCRIZIONETIPOLOGIAGRADOISTRUZIONESCUOLA": "SCUOLA INFANZIA",
                "DESCRIZIONECOMUNE": "ROMA"
            },
            "geometry": {
                "type": "Point",
                "coordinates": [
                    12.5434099,
                    41.9498108
                ]
            }
        },
        {
            "type": "Feature",
            "properties": {
                "CODICEISTITUTORIFERIMENTO": "RMIC8G5009",
                "DESCRIZIONETIPOLOGIAGRADOISTRUZIONESCUOLA": "SCUOLA PRIMO GRADO",
                "DESCRIZIONECOMUNE": "ROMA"
            },
            "geometry": {
                "type": "Point",
                "coordinates": [
                    12.416729,
                    41.9242139
                ]
            }
        },
        {
            "type": "Feature",
            "properties": {
                "CODICEISTITUTORIFERIMENTO": "FRIC851002",
                "DESCRIZIONETIPOLOGIAGRADOISTRUZIONESCUOLA": "SCUOLA PRIMARIA",
                "DESCRIZIONECOMUNE": "SORA"
            },
            "geometry": {
                "type": "Point",
                "coordinates": [
                    13.6348214,
                    41.7340527
                ]
            }
        },
        {
            "type": "Feature",
            "properties": {
                "CODICEISTITUTORIFERIMENTO": "RMIC8GF005",
                "DESCRIZIONETIPOLOGIAGRADOISTRUZIONESCUOLA": "SCUOLA PRIMARIA",
                "DESCRIZIONECOMUNE": "ROMA"
            },
            "geometry": {
                "type": "Point",
                "coordinates": [
                    12.5581335,
                    41.8373708
                ]
            }
        },
        {
            "type": "Feature",
            "properties": {
                "CODICEISTITUTORIFERIMENTO": "RMIC8AL00A",
                "DESCRIZIONETIPOLOGIAGRADOISTRUZIONESCUOLA": "SCUOLA PRIMARIA",
                "DESCRIZIONECOMUNE": "CAMERATA NUOVA"
            },
            "geometry": {
                "type": "Point",
                "coordinates": [
                    13.1078343,
                    42.0181317
                ]
            }
        },
        {
            "type": "Feature",
            "properties": {
                "CODICEISTITUTORIFERIMENTO": "RMIC83700E",
                "DESCRIZIONETIPOLOGIAGRADOISTRUZIONESCUOLA": "ISTITUTO COMPRENSIVO",
                "DESCRIZIONECOMUNE": "ROMA"
            },
            "geometry": {
                "type": "Point",
                "coordinates": [
                    12.6073187,
                    41.8396358
                ]
            }
        },
        {
            "type": "Feature",
            "properties": {
                "CODICEISTITUTORIFERIMENTO": "RMIC8B200R",
                "DESCRIZIONETIPOLOGIAGRADOISTRUZIONESCUOLA": "SCUOLA INFANZIA",
                "DESCRIZIONECOMUNE": "ROMA"
            },
            "geometry": {
                "type": "Point",
                "coordinates": [
                    12.4465502,
                    41.8134635
                ]
            }
        },
        {
            "type": "Feature",
            "properties": {
                "CODICEISTITUTORIFERIMENTO": "RIIC81600V",
                "DESCRIZIONETIPOLOGIAGRADOISTRUZIONESCUOLA": "SCUOLA PRIMO GRADO",
                "DESCRIZIONECOMUNE": "RIETI"
            },
            "geometry": {
                "type": "Point",
                "coordinates": [
                    12.8574851,
                    42.4137951
                ]
            }
        },
        {
            "type": "Feature",
            "properties": {
                "CODICEISTITUTORIFERIMENTO": "RMIC812006",
                "DESCRIZIONETIPOLOGIAGRADOISTRUZIONESCUOLA": "SCUOLA PRIMARIA",
                "DESCRIZIONECOMUNE": "ROMA"
            },
            "geometry": {
                "type": "Point",
                "coordinates": [
                    12.5175182,
                    41.9699742
                ]
            }
        },
        {
            "type": "Feature",
            "properties": {
                "CODICEISTITUTORIFERIMENTO": "RMIC82300L",
                "DESCRIZIONETIPOLOGIAGRADOISTRUZIONESCUOLA": "ISTITUTO COMPRENSIVO",
                "DESCRIZIONECOMUNE": "ROMA"
            },
            "geometry": {
                "type": "Point",
                "coordinates": [
                    12.5679902,
                    41.8975284
                ]
            }
        },
        {
            "type": "Feature",
            "properties": {
                "CODICEISTITUTORIFERIMENTO": "RMIC8FA00B",
                "DESCRIZIONETIPOLOGIAGRADOISTRUZIONESCUOLA": "ISTITUTO COMPRENSIVO",
                "DESCRIZIONECOMUNE": "ROMA"
            },
            "geometry": {
                "type": "Point",
                "coordinates": [
                    12.6923331,
                    41.8603859
                ]
            }
        },
        {
            "type": "Feature",
            "properties": {
                "CODICEISTITUTORIFERIMENTO": "RMIC876005",
                "DESCRIZIONETIPOLOGIAGRADOISTRUZIONESCUOLA": "ISTITUTO COMPRENSIVO",
                "DESCRIZIONECOMUNE": "RIANO"
            },
            "geometry": {
                "type": "Point",
                "coordinates": [
                    12.5233908,
                    42.0902926
                ]
            }
        },
        {
            "type": "Feature",
            "properties": {
                "CODICEISTITUTORIFERIMENTO": "RMIC854008",
                "DESCRIZIONETIPOLOGIAGRADOISTRUZIONESCUOLA": "SCUOLA PRIMARIA",
                "DESCRIZIONECOMUNE": "ROMA"
            },
            "geometry": {
                "type": "Point",
                "coordinates": [
                    12.3489262,
                    41.7742349
                ]
            }
        },
        {
            "type": "Feature",
            "properties": {
                "CODICEISTITUTORIFERIMENTO": "LTIC81300V",
                "DESCRIZIONETIPOLOGIAGRADOISTRUZIONESCUOLA": "ISTITUTO COMPRENSIVO",
                "DESCRIZIONECOMUNE": "FORMIA"
            },
            "geometry": {
                "type": "Point",
                "coordinates": [
                    13.6135368,
                    41.25977169999999
                ]
            }
        },
        {
            "type": "Feature",
            "properties": {
                "CODICEISTITUTORIFERIMENTO": "RMIC8AK00E",
                "DESCRIZIONETIPOLOGIAGRADOISTRUZIONESCUOLA": "SCUOLA INFANZIA",
                "DESCRIZIONECOMUNE": "PALOMBARA SABINA"
            },
            "geometry": {
                "type": "Point",
                "coordinates": [
                    12.7666451,
                    42.0707272
                ]
            }
        },
        {
            "type": "Feature",
            "properties": {
                "CODICEISTITUTORIFERIMENTO": "RMIC8DH001",
                "DESCRIZIONETIPOLOGIAGRADOISTRUZIONESCUOLA": "SCUOLA INFANZIA",
                "DESCRIZIONECOMUNE": "FIUMICINO"
            },
            "geometry": {
                "type": "Point",
                "coordinates": [
                    12.209692,
                    41.8471435
                ]
            }
        },
        {
            "type": "Feature",
            "properties": {
                "CODICEISTITUTORIFERIMENTO": "RMIC8AL00A",
                "DESCRIZIONETIPOLOGIAGRADOISTRUZIONESCUOLA": "SCUOLA PRIMO GRADO",
                "DESCRIZIONECOMUNE": "ARSOLI"
            },
            "geometry": {
                "type": "Point",
                "coordinates": [
                    13.0161213,
                    42.04141329999999
                ]
            }
        },
        {
            "type": "Feature",
            "properties": {
                "CODICEISTITUTORIFERIMENTO": "RMIC8B900G",
                "DESCRIZIONETIPOLOGIAGRADOISTRUZIONESCUOLA": "SCUOLA INFANZIA",
                "DESCRIZIONECOMUNE": "CIVITAVECCHIA"
            },
            "geometry": {
                "type": "Point",
                "coordinates": [
                    11.8151855,
                    42.0747766
                ]
            }
        },
        {
            "type": "Feature",
            "properties": {
                "CODICEISTITUTORIFERIMENTO": "FRIC834008",
                "DESCRIZIONETIPOLOGIAGRADOISTRUZIONESCUOLA": "SCUOLA INFANZIA",
                "DESCRIZIONECOMUNE": "ROCCASECCA"
            },
            "geometry": {
                "type": "Point",
                "coordinates": [
                    13.7160301,
                    41.5401106
                ]
            }
        },
        {
            "type": "Feature",
            "properties": {
                "CODICEISTITUTORIFERIMENTO": "FRIC85200T",
                "DESCRIZIONETIPOLOGIAGRADOISTRUZIONESCUOLA": "SCUOLA INFANZIA",
                "DESCRIZIONECOMUNE": "PONTECORVO"
            },
            "geometry": {
                "type": "Point",
                "coordinates": [
                    13.6679373,
                    41.4591713
                ]
            }
        },
        {
            "type": "Feature",
            "properties": {
                "CODICEISTITUTORIFERIMENTO": "RMIC8C9006",
                "DESCRIZIONETIPOLOGIAGRADOISTRUZIONESCUOLA": "SCUOLA INFANZIA",
                "DESCRIZIONECOMUNE": "ARDEA"
            },
            "geometry": {
                "type": "Point",
                "coordinates": [
                    12.5372246,
                    41.6136868
                ]
            }
        },
        {
            "type": "Feature",
            "properties": {
                "CODICEISTITUTORIFERIMENTO": "RIIC82500N",
                "DESCRIZIONETIPOLOGIAGRADOISTRUZIONESCUOLA": "SCUOLA PRIMO GRADO",
                "DESCRIZIONECOMUNE": "POGGIO MIRTETO"
            },
            "geometry": {
                "type": "Point",
                "coordinates": [
                    12.689319,
                    42.2694925
                ]
            }
        },
        {
            "type": "Feature",
            "properties": {
                "CODICEISTITUTORIFERIMENTO": "RMIC8EH00G",
                "DESCRIZIONETIPOLOGIAGRADOISTRUZIONESCUOLA": "SCUOLA PRIMARIA",
                "DESCRIZIONECOMUNE": "ROMA"
            },
            "geometry": {
                "type": "Point",
                "coordinates": [
                    12.5460343,
                    41.9427523
                ]
            }
        },
        {
            "type": "Feature",
            "properties": {
                "CODICEISTITUTORIFERIMENTO": "RIIC806008",
                "DESCRIZIONETIPOLOGIAGRADOISTRUZIONESCUOLA": "SCUOLA PRIMARIA",
                "DESCRIZIONECOMUNE": "LEONESSA"
            },
            "geometry": {
                "type": "Point",
                "coordinates": [
                    12.9631842,
                    42.5666655
                ]
            }
        },
        {
            "type": "Feature",
            "properties": {
                "CODICEISTITUTORIFERIMENTO": "RMIC89300V",
                "DESCRIZIONETIPOLOGIAGRADOISTRUZIONESCUOLA": "ISTITUTO COMPRENSIVO",
                "DESCRIZIONECOMUNE": "TIVOLI"
            },
            "geometry": {
                "type": "Point",
                "coordinates": [
                    12.800329,
                    41.9565754
                ]
            }
        },
        {
            "type": "Feature",
            "properties": {
                "CODICEISTITUTORIFERIMENTO": "RMIC813002",
                "DESCRIZIONETIPOLOGIAGRADOISTRUZIONESCUOLA": "ISTITUTO COMPRENSIVO",
                "DESCRIZIONECOMUNE": "ROMA"
            },
            "geometry": {
                "type": "Point",
                "coordinates": [
                    12.5370671,
                    41.9421051
                ]
            }
        },
        {
            "type": "Feature",
            "properties": {
                "CODICEISTITUTORIFERIMENTO": "RMIC8EM008",
                "DESCRIZIONETIPOLOGIAGRADOISTRUZIONESCUOLA": "SCUOLA PRIMARIA",
                "DESCRIZIONECOMUNE": "ROMA"
            },
            "geometry": {
                "type": "Point",
                "coordinates": [
                    12.5516711,
                    41.90536660000001
                ]
            }
        },
        {
            "type": "Feature",
            "properties": {
                "CODICEISTITUTORIFERIMENTO": "FRIC81600P",
                "DESCRIZIONETIPOLOGIAGRADOISTRUZIONESCUOLA": "SCUOLA INFANZIA",
                "DESCRIZIONECOMUNE": "ARCE"
            },
            "geometry": {
                "type": "Point",
                "coordinates": [
                    13.5792999,
                    41.5843919
                ]
            }
        },
        {
            "type": "Feature",
            "properties": {
                "CODICEISTITUTORIFERIMENTO": "RMIC8G7001",
                "DESCRIZIONETIPOLOGIAGRADOISTRUZIONESCUOLA": "SCUOLA PRIMO GRADO",
                "DESCRIZIONECOMUNE": "POMEZIA"
            },
            "geometry": {
                "type": "Point",
                "coordinates": [
                    12.5686761,
                    41.7072312
                ]
            }
        },
        {
            "type": "Feature",
            "properties": {
                "CODICEISTITUTORIFERIMENTO": "RMIC8AU001",
                "DESCRIZIONETIPOLOGIAGRADOISTRUZIONESCUOLA": "SCUOLA PRIMO GRADO",
                "DESCRIZIONECOMUNE": "MONTORIO ROMANO"
            },
            "geometry": {
                "type": "Point",
                "coordinates": [
                    12.807133,
                    42.138273
                ]
            }
        },
        {
            "type": "Feature",
            "properties": {
                "CODICEISTITUTORIFERIMENTO": "RMIC8FF00E",
                "DESCRIZIONETIPOLOGIAGRADOISTRUZIONESCUOLA": "ISTITUTO COMPRENSIVO",
                "DESCRIZIONECOMUNE": "ROMA"
            },
            "geometry": {
                "type": "Point",
                "coordinates": [
                    12.4894497,
                    41.84772470000001
                ]
            }
        },
        {
            "type": "Feature",
            "properties": {
                "CODICEISTITUTORIFERIMENTO": "RMIC8CP00E",
                "DESCRIZIONETIPOLOGIAGRADOISTRUZIONESCUOLA": "SCUOLA PRIMARIA",
                "DESCRIZIONECOMUNE": "ROMA"
            },
            "geometry": {
                "type": "Point",
                "coordinates": [
                    12.6974117,
                    41.9007324
                ]
            }
        },
        {
            "type": "Feature",
            "properties": {
                "CODICEISTITUTORIFERIMENTO": "VTIC812008",
                "DESCRIZIONETIPOLOGIAGRADOISTRUZIONESCUOLA": "SCUOLA INFANZIA",
                "DESCRIZIONECOMUNE": "CARBOGNANO"
            },
            "geometry": {
                "type": "Point",
                "coordinates": [
                    12.2643864,
                    42.332815
                ]
            }
        },
        {
            "type": "Feature",
            "properties": {
                "CODICEISTITUTORIFERIMENTO": "RMIC8C3007",
                "DESCRIZIONETIPOLOGIAGRADOISTRUZIONESCUOLA": "SCUOLA INFANZIA",
                "DESCRIZIONECOMUNE": "FRASCATI"
            },
            "geometry": {
                "type": "Point",
                "coordinates": [
                    12.6695917,
                    41.8049178
                ]
            }
        },
        {
            "type": "Feature",
            "properties": {
                "CODICEISTITUTORIFERIMENTO": "FRIC826009",
                "DESCRIZIONETIPOLOGIAGRADOISTRUZIONESCUOLA": "SCUOLA INFANZIA",
                "DESCRIZIONECOMUNE": "PIGNATARO INTERAMNA"
            },
            "geometry": {
                "type": "Point",
                "coordinates": [
                    13.7840977,
                    41.4406061
                ]
            }
        },
        {
            "type": "Feature",
            "properties": {
                "CODICEISTITUTORIFERIMENTO": "FRIC83200L",
                "DESCRIZIONETIPOLOGIAGRADOISTRUZIONESCUOLA": "SCUOLA PRIMO GRADO",
                "DESCRIZIONECOMUNE": "CASTELLIRI"
            },
            "geometry": {
                "type": "Point",
                "coordinates": [
                    13.5516118,
                    41.6787525
                ]
            }
        },
        {
            "type": "Feature",
            "properties": {
                "CODICEISTITUTORIFERIMENTO": "LTIC84800T",
                "DESCRIZIONETIPOLOGIAGRADOISTRUZIONESCUOLA": "ISTITUTO COMPRENSIVO",
                "DESCRIZIONECOMUNE": "LATINA"
            },
            "geometry": {
                "type": "Point",
                "coordinates": [
                    12.8923333,
                    41.4512072
                ]
            }
        },
        {
            "type": "Feature",
            "properties": {
                "CODICEISTITUTORIFERIMENTO": "RMIC8DR00R",
                "DESCRIZIONETIPOLOGIAGRADOISTRUZIONESCUOLA": "ISTITUTO COMPRENSIVO",
                "DESCRIZIONECOMUNE": "PALESTRINA"
            },
            "geometry": {
                "type": "Point",
                "coordinates": [
                    12.8863343,
                    41.8392766
                ]
            }
        },
        {
            "type": "Feature",
            "properties": {
                "CODICEISTITUTORIFERIMENTO": "RMIC8FU00V",
                "DESCRIZIONETIPOLOGIAGRADOISTRUZIONESCUOLA": "ISTITUTO COMPRENSIVO",
                "DESCRIZIONECOMUNE": "ROMA"
            },
            "geometry": {
                "type": "Point",
                "coordinates": [
                    12.4424913,
                    41.8663166
                ]
            }
        },
        {
            "type": "Feature",
            "properties": {
                "CODICEISTITUTORIFERIMENTO": "FRIC84700A",
                "DESCRIZIONETIPOLOGIAGRADOISTRUZIONESCUOLA": "SCUOLA INFANZIA",
                "DESCRIZIONECOMUNE": "FROSINONE"
            },
            "geometry": {
                "type": "Point",
                "coordinates": [
                    13.3291441,
                    41.6285015
                ]
            }
        },
        {
            "type": "Feature",
            "properties": {
                "CODICEISTITUTORIFERIMENTO": "VTIC81000L",
                "DESCRIZIONETIPOLOGIAGRADOISTRUZIONESCUOLA": "SCUOLA INFANZIA",
                "DESCRIZIONECOMUNE": "RONCIGLIONE"
            },
            "geometry": {
                "type": "Point",
                "coordinates": [
                    12.2164269,
                    42.28842059999999
                ]
            }
        },
        {
            "type": "Feature",
            "properties": {
                "CODICEISTITUTORIFERIMENTO": "RMIC8B200R",
                "DESCRIZIONETIPOLOGIAGRADOISTRUZIONESCUOLA": "SCUOLA PRIMARIA",
                "DESCRIZIONECOMUNE": "ROMA"
            },
            "geometry": {
                "type": "Point",
                "coordinates": [
                    12.4465502,
                    41.8134635
                ]
            }
        },
        {
            "type": "Feature",
            "properties": {
                "CODICEISTITUTORIFERIMENTO": "RIIC82000E",
                "DESCRIZIONETIPOLOGIAGRADOISTRUZIONESCUOLA": "SCUOLA INFANZIA",
                "DESCRIZIONECOMUNE": "CITTADUCALE"
            },
            "geometry": {
                "type": "Point",
                "coordinates": [
                    12.9526083,
                    42.3881625
                ]
            }
        },
        {
            "type": "Feature",
            "properties": {
                "CODICEISTITUTORIFERIMENTO": "RIIC81600V",
                "DESCRIZIONETIPOLOGIAGRADOISTRUZIONESCUOLA": "ISTITUTO COMPRENSIVO",
                "DESCRIZIONECOMUNE": "RIETI"
            },
            "geometry": {
                "type": "Point",
                "coordinates": [
                    12.8571152,
                    42.4142909
                ]
            }
        },
        {
            "type": "Feature",
            "properties": {
                "CODICEISTITUTORIFERIMENTO": "VTIC834005",
                "DESCRIZIONETIPOLOGIAGRADOISTRUZIONESCUOLA": "SCUOLA PRIMO GRADO",
                "DESCRIZIONECOMUNE": "VITERBO"
            },
            "geometry": {
                "type": "Point",
                "coordinates": [
                    12.1508329,
                    42.4291336
                ]
            }
        },
        {
            "type": "Feature",
            "properties": {
                "CODICEISTITUTORIFERIMENTO": "RMIC8A9001",
                "DESCRIZIONETIPOLOGIAGRADOISTRUZIONESCUOLA": "SCUOLA INFANZIA",
                "DESCRIZIONECOMUNE": "POMEZIA"
            },
            "geometry": {
                "type": "Point",
                "coordinates": [
                    12.4656732,
                    41.6216115
                ]
            }
        },
        {
            "type": "Feature",
            "properties": {
                "CODICEISTITUTORIFERIMENTO": "RMIC876005",
                "DESCRIZIONETIPOLOGIAGRADOISTRUZIONESCUOLA": "SCUOLA INFANZIA",
                "DESCRIZIONECOMUNE": "RIANO"
            },
            "geometry": {
                "type": "Point",
                "coordinates": [
                    12.5047832,
                    42.099878
                ]
            }
        },
        {
            "type": "Feature",
            "properties": {
                "CODICEISTITUTORIFERIMENTO": "RMIC8EG00Q",
                "DESCRIZIONETIPOLOGIAGRADOISTRUZIONESCUOLA": "SCUOLA INFANZIA",
                "DESCRIZIONECOMUNE": "ROMA"
            },
            "geometry": {
                "type": "Point",
                "coordinates": [
                    12.5185708,
                    41.9570839
                ]
            }
        },
        {
            "type": "Feature",
            "properties": {
                "CODICEISTITUTORIFERIMENTO": "RMIC82300L",
                "DESCRIZIONETIPOLOGIAGRADOISTRUZIONESCUOLA": "SCUOLA PRIMO GRADO",
                "DESCRIZIONECOMUNE": "ROMA"
            },
            "geometry": {
                "type": "Point",
                "coordinates": [
                    12.567196,
                    41.8975444
                ]
            }
        },
        {
            "type": "Feature",
            "properties": {
                "CODICEISTITUTORIFERIMENTO": "RMIC8FA00B",
                "DESCRIZIONETIPOLOGIAGRADOISTRUZIONESCUOLA": "SCUOLA PRIMO GRADO",
                "DESCRIZIONECOMUNE": "ROMA"
            },
            "geometry": {
                "type": "Point",
                "coordinates": [
                    12.6923331,
                    41.8603859
                ]
            }
        },
        {
            "type": "Feature",
            "properties": {
                "CODICEISTITUTORIFERIMENTO": "RMIC8AU001",
                "DESCRIZIONETIPOLOGIAGRADOISTRUZIONESCUOLA": "SCUOLA INFANZIA",
                "DESCRIZIONECOMUNE": "MONTORIO ROMANO"
            },
            "geometry": {
                "type": "Point",
                "coordinates": [
                    12.8056414,
                    42.139397
                ]
            }
        },
        {
            "type": "Feature",
            "properties": {
                "CODICEISTITUTORIFERIMENTO": "RMIC8A8005",
                "DESCRIZIONETIPOLOGIAGRADOISTRUZIONESCUOLA": "ISTITUTO COMPRENSIVO",
                "DESCRIZIONECOMUNE": "POMEZIA"
            },
            "geometry": {
                "type": "Point",
                "coordinates": [
                    12.5018126,
                    41.66270799999999
                ]
            }
        },
        {
            "type": "Feature",
            "properties": {
                "CODICEISTITUTORIFERIMENTO": "RMIC8AK00E",
                "DESCRIZIONETIPOLOGIAGRADOISTRUZIONESCUOLA": "SCUOLA INFANZIA",
                "DESCRIZIONECOMUNE": "PALOMBARA SABINA"
            },
            "geometry": {
                "type": "Point",
                "coordinates": [
                    12.7635531,
                    42.0680608
                ]
            }
        },
        {
            "type": "Feature",
            "properties": {
                "CODICEISTITUTORIFERIMENTO": "RMIC8AL00A",
                "DESCRIZIONETIPOLOGIAGRADOISTRUZIONESCUOLA": "SCUOLA PRIMO GRADO",
                "DESCRIZIONECOMUNE": "ROVIANO"
            },
            "geometry": {
                "type": "Point",
                "coordinates": [
                    12.9975801,
                    42.025551
                ]
            }
        },
        {
            "type": "Feature",
            "properties": {
                "CODICEISTITUTORIFERIMENTO": "RMIC854008",
                "DESCRIZIONETIPOLOGIAGRADOISTRUZIONESCUOLA": "SCUOLA PRIMO GRADO",
                "DESCRIZIONECOMUNE": "ROMA"
            },
            "geometry": {
                "type": "Point",
                "coordinates": [
                    12.3472377,
                    41.7740405
                ]
            }
        },
        {
            "type": "Feature",
            "properties": {
                "CODICEISTITUTORIFERIMENTO": "RMIC8B900G",
                "DESCRIZIONETIPOLOGIAGRADOISTRUZIONESCUOLA": "SCUOLA INFANZIA",
                "DESCRIZIONECOMUNE": "CIVITAVECCHIA"
            },
            "geometry": {
                "type": "Point",
                "coordinates": [
                    11.8160335,
                    42.0761518
                ]
            }
        },
        {
            "type": "Feature",
            "properties": {
                "CODICEISTITUTORIFERIMENTO": "RMIC8DH001",
                "DESCRIZIONETIPOLOGIAGRADOISTRUZIONESCUOLA": "SCUOLA INFANZIA",
                "DESCRIZIONECOMUNE": "FIUMICINO"
            },
            "geometry": {
                "type": "Point",
                "coordinates": [
                    12.1592401,
                    41.9048515
                ]
            }
        },
        {
            "type": "Feature",
            "properties": {
                "CODICEISTITUTORIFERIMENTO": "FRIC834008",
                "DESCRIZIONETIPOLOGIAGRADOISTRUZIONESCUOLA": "SCUOLA PRIMARIA",
                "DESCRIZIONECOMUNE": "ROCCASECCA"
            },
            "geometry": {
                "type": "Point",
                "coordinates": [
                    13.6465993,
                    41.5299952
                ]
            }
        },
        {
            "type": "Feature",
            "properties": {
                "CODICEISTITUTORIFERIMENTO": "RMIC8GF005",
                "DESCRIZIONETIPOLOGIAGRADOISTRUZIONESCUOLA": "SCUOLA PRIMO GRADO",
                "DESCRIZIONECOMUNE": "ROMA"
            },
            "geometry": {
                "type": "Point",
                "coordinates": [
                    12.4822025,
                    41.8967068
                ]
            }
        },
        {
            "type": "Feature",
            "properties": {
                "CODICEISTITUTORIFERIMENTO": "RIIC82500N",
                "DESCRIZIONETIPOLOGIAGRADOISTRUZIONESCUOLA": "SCUOLA PRIMARIA",
                "DESCRIZIONECOMUNE": "MONTOPOLI DI SABINA"
            },
            "geometry": {
                "type": "Point",
                "coordinates": [
                    12.6933648,
                    42.2430243
                ]
            }
        },
        {
            "type": "Feature",
            "properties": {
                "CODICEISTITUTORIFERIMENTO": "RMIC8EH00G",
                "DESCRIZIONETIPOLOGIAGRADOISTRUZIONESCUOLA": "SCUOLA PRIMO GRADO",
                "DESCRIZIONECOMUNE": "ROMA"
            },
            "geometry": {
                "type": "Point",
                "coordinates": [
                    12.5439966,
                    41.9457569
                ]
            }
        },
        {
            "type": "Feature",
            "properties": {
                "CODICEISTITUTORIFERIMENTO": "RIIC806008",
                "DESCRIZIONETIPOLOGIAGRADOISTRUZIONESCUOLA": "SCUOLA PRIMARIA",
                "DESCRIZIONECOMUNE": "COLLI SUL VELINO"
            },
            "geometry": {
                "type": "Point",
                "coordinates": [
                    12.779282,
                    42.4989604
                ]
            }
        },
        {
            "type": "Feature",
            "properties": {
                "CODICEISTITUTORIFERIMENTO": "RMIC8EM008",
                "DESCRIZIONETIPOLOGIAGRADOISTRUZIONESCUOLA": "SCUOLA PRIMARIA",
                "DESCRIZIONECOMUNE": "ROMA"
            },
            "geometry": {
                "type": "Point",
                "coordinates": [
                    12.4661078,
                    41.8676033
                ]
            }
        },
        {
            "type": "Feature",
            "properties": {
                "CODICEISTITUTORIFERIMENTO": "RMIC8D000A",
                "DESCRIZIONETIPOLOGIAGRADOISTRUZIONESCUOLA": "SCUOLA PRIMARIA",
                "DESCRIZIONECOMUNE": "NETTUNO"
            },
            "geometry": {
                "type": "Point",
                "coordinates": [
                    12.6493203,
                    41.4686953
                ]
            }
        },
        {
            "type": "Feature",
            "properties": {
                "CODICEISTITUTORIFERIMENTO": "RMIC813002",
                "DESCRIZIONETIPOLOGIAGRADOISTRUZIONESCUOLA": "SCUOLA PRIMARIA",
                "DESCRIZIONECOMUNE": "ROMA"
            },
            "geometry": {
                "type": "Point",
                "coordinates": [
                    12.52962,
                    41.94674
                ]
            }
        },
        {
            "type": "Feature",
            "properties": {
                "CODICEISTITUTORIFERIMENTO": "RMIC8FF00E",
                "DESCRIZIONETIPOLOGIAGRADOISTRUZIONESCUOLA": "SCUOLA INFANZIA",
                "DESCRIZIONECOMUNE": "ROMA"
            },
            "geometry": {
                "type": "Point",
                "coordinates": [
                    12.493329,
                    41.8408911
                ]
            }
        },
        {
            "type": "Feature",
            "properties": {
                "CODICEISTITUTORIFERIMENTO": "RMIC876005",
                "DESCRIZIONETIPOLOGIAGRADOISTRUZIONESCUOLA": "SCUOLA PRIMARIA",
                "DESCRIZIONECOMUNE": "RIANO"
            },
            "geometry": {
                "type": "Point",
                "coordinates": [
                    12.5047832,
                    42.099878
                ]
            }
        },
        {
            "type": "Feature",
            "properties": {
                "CODICEISTITUTORIFERIMENTO": "RMIC8G7001",
                "DESCRIZIONETIPOLOGIAGRADOISTRUZIONESCUOLA": "SCUOLA PRIMARIA",
                "DESCRIZIONECOMUNE": "POMEZIA"
            },
            "geometry": {
                "type": "Point",
                "coordinates": [
                    12.5607061,
                    41.74838
                ]
            }
        },
        {
            "type": "Feature",
            "properties": {
                "CODICEISTITUTORIFERIMENTO": "RMIC8B1001",
                "DESCRIZIONETIPOLOGIAGRADOISTRUZIONESCUOLA": "SCUOLA PRIMO GRADO",
                "DESCRIZIONECOMUNE": "ROMA"
            },
            "geometry": {
                "type": "Point",
                "coordinates": [
                    12.4822025,
                    41.8967068
                ]
            }
        },
        {
            "type": "Feature",
            "properties": {
                "CODICEISTITUTORIFERIMENTO": "LTIC83600G",
                "DESCRIZIONETIPOLOGIAGRADOISTRUZIONESCUOLA": "SCUOLA PRIMARIA",
                "DESCRIZIONECOMUNE": "PRIVERNO"
            },
            "geometry": {
                "type": "Point",
                "coordinates": [
                    13.1757872,
                    41.4753503
                ]
            }
        },
        {
            "type": "Feature",
            "properties": {
                "CODICEISTITUTORIFERIMENTO": "RIIC81100Q",
                "DESCRIZIONETIPOLOGIAGRADOISTRUZIONESCUOLA": "SCUOLA PRIMO GRADO",
                "DESCRIZIONECOMUNE": "AMATRICE"
            },
            "geometry": {
                "type": "Point",
                "coordinates": [
                    13.2913243,
                    42.62740609999999
                ]
            }
        },
        {
            "type": "Feature",
            "properties": {
                "CODICEISTITUTORIFERIMENTO": "RMIC8BA001",
                "DESCRIZIONETIPOLOGIAGRADOISTRUZIONESCUOLA": "SCUOLA INFANZIA",
                "DESCRIZIONECOMUNE": "GENZANO DI ROMA"
            },
            "geometry": {
                "type": "Point",
                "coordinates": [
                    12.6886945,
                    41.692798
                ]
            }
        },
        {
            "type": "Feature",
            "properties": {
                "CODICEISTITUTORIFERIMENTO": "RMIC8DL00T",
                "DESCRIZIONETIPOLOGIAGRADOISTRUZIONESCUOLA": "SCUOLA PRIMARIA",
                "DESCRIZIONECOMUNE": "FIUMICINO"
            },
            "geometry": {
                "type": "Point",
                "coordinates": [
                    12.2573069,
                    41.7707369
                ]
            }
        },
        {
            "type": "Feature",
            "properties": {
                "CODICEISTITUTORIFERIMENTO": "FRIC851002",
                "DESCRIZIONETIPOLOGIAGRADOISTRUZIONESCUOLA": "SCUOLA INFANZIA",
                "DESCRIZIONECOMUNE": "SORA"
            },
            "geometry": {
                "type": "Point",
                "coordinates": [
                    13.6243024,
                    41.7349807
                ]
            }
        },
        {
            "type": "Feature",
            "properties": {
                "CODICEISTITUTORIFERIMENTO": "RMIC841006",
                "DESCRIZIONETIPOLOGIAGRADOISTRUZIONESCUOLA": "SCUOLA INFANZIA",
                "DESCRIZIONECOMUNE": "ROMA"
            },
            "geometry": {
                "type": "Point",
                "coordinates": [
                    12.3432901,
                    41.7884577
                ]
            }
        },
        {
            "type": "Feature",
            "properties": {
                "CODICEISTITUTORIFERIMENTO": "FRIC830001",
                "DESCRIZIONETIPOLOGIAGRADOISTRUZIONESCUOLA": "SCUOLA PRIMARIA",
                "DESCRIZIONECOMUNE": "PATRICA"
            },
            "geometry": {
                "type": "Point",
                "coordinates": [
                    13.2428225,
                    41.5917197
                ]
            }
        },
        {
            "type": "Feature",
            "properties": {
                "CODICEISTITUTORIFERIMENTO": "FRIC826009",
                "DESCRIZIONETIPOLOGIAGRADOISTRUZIONESCUOLA": "SCUOLA INFANZIA",
                "DESCRIZIONECOMUNE": "SANT'APOLLINARE"
            },
            "geometry": {
                "type": "Point",
                "coordinates": [
                    13.8290607,
                    41.4031625
                ]
            }
        },
        {
            "type": "Feature",
            "properties": {
                "CODICEISTITUTORIFERIMENTO": "RMIC8FC003",
                "DESCRIZIONETIPOLOGIAGRADOISTRUZIONESCUOLA": "SCUOLA PRIMARIA",
                "DESCRIZIONECOMUNE": "ROMA"
            },
            "geometry": {
                "type": "Point",
                "coordinates": [
                    12.6181075,
                    41.8733844
                ]
            }
        },
        {
            "type": "Feature",
            "properties": {
                "CODICEISTITUTORIFERIMENTO": "FRIC857001",
                "DESCRIZIONETIPOLOGIAGRADOISTRUZIONESCUOLA": "SCUOLA PRIMARIA",
                "DESCRIZIONECOMUNE": "VALLEROTONDA"
            },
            "geometry": {
                "type": "Point",
                "coordinates": [
                    13.9138402,
                    41.5498761
                ]
            }
        },
        {
            "type": "Feature",
            "properties": {
                "CODICEISTITUTORIFERIMENTO": "FRIC81600P",
                "DESCRIZIONETIPOLOGIAGRADOISTRUZIONESCUOLA": "ISTITUTO COMPRENSIVO",
                "DESCRIZIONECOMUNE": "ARCE"
            },
            "geometry": {
                "type": "Point",
                "coordinates": [
                    13.5772098,
                    41.585102
                ]
            }
        },
        {
            "type": "Feature",
            "properties": {
                "CODICEISTITUTORIFERIMENTO": "RMIC8C3007",
                "DESCRIZIONETIPOLOGIAGRADOISTRUZIONESCUOLA": "SCUOLA PRIMO GRADO",
                "DESCRIZIONECOMUNE": "FRASCATI"
            },
            "geometry": {
                "type": "Point",
                "coordinates": [
                    12.6761326,
                    41.808434
                ]
            }
        },
        {
            "type": "Feature",
            "properties": {
                "CODICEISTITUTORIFERIMENTO": "RMIC86600E",
                "DESCRIZIONETIPOLOGIAGRADOISTRUZIONESCUOLA": "ISTITUTO COMPRENSIVO",
                "DESCRIZIONECOMUNE": "CAMPAGNANO DI ROMA"
            },
            "geometry": {
                "type": "Point",
                "coordinates": [
                    12.3803196,
                    42.138129
                ]
            }
        },
        {
            "type": "Feature",
            "properties": {
                "CODICEISTITUTORIFERIMENTO": "RMIC8DT00T",
                "DESCRIZIONETIPOLOGIAGRADOISTRUZIONESCUOLA": "SCUOLA PRIMO GRADO",
                "DESCRIZIONECOMUNE": "GUIDONIA MONTECELIO"
            },
            "geometry": {
                "type": "Point",
                "coordinates": [
                    12.760911,
                    41.9650057
                ]
            }
        },
        {
            "type": "Feature",
            "properties": {
                "CODICEISTITUTORIFERIMENTO": "RMIC884004",
                "DESCRIZIONETIPOLOGIAGRADOISTRUZIONESCUOLA": "SCUOLA PRIMARIA",
                "DESCRIZIONECOMUNE": "MONTEROTONDO"
            },
            "geometry": {
                "type": "Point",
                "coordinates": [
                    12.6213005,
                    42.0572413
                ]
            }
        },
        {
            "type": "Feature",
            "properties": {
                "CODICEISTITUTORIFERIMENTO": "RMIC8EG00Q",
                "DESCRIZIONETIPOLOGIAGRADOISTRUZIONESCUOLA": "ISTITUTO COMPRENSIVO",
                "DESCRIZIONECOMUNE": "ROMA"
            },
            "geometry": {
                "type": "Point",
                "coordinates": [
                    12.5180762,
                    41.95791880000001
                ]
            }
        },
        {
            "type": "Feature",
            "properties": {
                "CODICEISTITUTORIFERIMENTO": "FRIC85200T",
                "DESCRIZIONETIPOLOGIAGRADOISTRUZIONESCUOLA": "SCUOLA INFANZIA",
                "DESCRIZIONECOMUNE": "SAN GIOVANNI INCARICO"
            },
            "geometry": {
                "type": "Point",
                "coordinates": [
                    13.5578697,
                    41.5001694
                ]
            }
        },
        {
            "type": "Feature",
            "properties": {
                "CODICEISTITUTORIFERIMENTO": "RMIC813002",
                "DESCRIZIONETIPOLOGIAGRADOISTRUZIONESCUOLA": "SCUOLA INFANZIA",
                "DESCRIZIONECOMUNE": "ROMA"
            },
            "geometry": {
                "type": "Point",
                "coordinates": [
                    12.5370671,
                    41.9421051
                ]
            }
        },
        {
            "type": "Feature",
            "properties": {
                "CODICEISTITUTORIFERIMENTO": "VTIC81000L",
                "DESCRIZIONETIPOLOGIAGRADOISTRUZIONESCUOLA": "SCUOLA PRIMO GRADO",
                "DESCRIZIONECOMUNE": "RONCIGLIONE"
            },
            "geometry": {
                "type": "Point",
                "coordinates": [
                    12.213234,
                    42.28657279999999
                ]
            }
        },
        {
            "type": "Feature",
            "properties": {
                "CODICEISTITUTORIFERIMENTO": "VTIC834005",
                "DESCRIZIONETIPOLOGIAGRADOISTRUZIONESCUOLA": "SCUOLA PRIMARIA",
                "DESCRIZIONECOMUNE": "VITERBO"
            },
            "geometry": {
                "type": "Point",
                "coordinates": [
                    12.1090461,
                    42.4272531
                ]
            }
        },
        {
            "type": "Feature",
            "properties": {
                "CODICEISTITUTORIFERIMENTO": "RMIC8GF005",
                "DESCRIZIONETIPOLOGIAGRADOISTRUZIONESCUOLA": "ISTITUTO COMPRENSIVO",
                "DESCRIZIONECOMUNE": "ROMA"
            },
            "geometry": {
                "type": "Point",
                "coordinates": [
                    12.5638343,
                    41.8324282
                ]
            }
        },
        {
            "type": "Feature",
            "properties": {
                "CODICEISTITUTORIFERIMENTO": "RMIC854008",
                "DESCRIZIONETIPOLOGIAGRADOISTRUZIONESCUOLA": "SCUOLA INFANZIA",
                "DESCRIZIONECOMUNE": "ROMA"
            },
            "geometry": {
                "type": "Point",
                "coordinates": [
                    12.3489262,
                    41.7742349
                ]
            }
        },
        {
            "type": "Feature",
            "properties": {
                "CODICEISTITUTORIFERIMENTO": "RMIC8EM008",
                "DESCRIZIONETIPOLOGIAGRADOISTRUZIONESCUOLA": "SCUOLA INFANZIA",
                "DESCRIZIONECOMUNE": "ROMA"
            },
            "geometry": {
                "type": "Point",
                "coordinates": [
                    12.5516822,
                    41.9057588
                ]
            }
        },
        {
            "type": "Feature",
            "properties": {
                "CODICEISTITUTORIFERIMENTO": "RMIC8G7001",
                "DESCRIZIONETIPOLOGIAGRADOISTRUZIONESCUOLA": "SCUOLA PRIMARIA",
                "DESCRIZIONECOMUNE": "POMEZIA"
            },
            "geometry": {
                "type": "Point",
                "coordinates": [
                    12.5261672,
                    41.6457316
                ]
            }
        },
        {
            "type": "Feature",
            "properties": {
                "CODICEISTITUTORIFERIMENTO": "RMIC8DH001",
                "DESCRIZIONETIPOLOGIAGRADOISTRUZIONESCUOLA": "SCUOLA PRIMARIA",
                "DESCRIZIONECOMUNE": "FIUMICINO"
            },
            "geometry": {
                "type": "Point",
                "coordinates": [
                    12.1592401,
                    41.9048515
                ]
            }
        },
        {
            "type": "Feature",
            "properties": {
                "CODICEISTITUTORIFERIMENTO": "RMIC8E700Q",
                "DESCRIZIONETIPOLOGIAGRADOISTRUZIONESCUOLA": "SCUOLA INFANZIA",
                "DESCRIZIONECOMUNE": "ROMA"
            },
            "geometry": {
                "type": "Point",
                "coordinates": [
                    12.6434469,
                    41.866563
                ]
            }
        },
        {
            "type": "Feature",
            "properties": {
                "CODICEISTITUTORIFERIMENTO": "FRIC83300C",
                "DESCRIZIONETIPOLOGIAGRADOISTRUZIONESCUOLA": "SCUOLA INFANZIA",
                "DESCRIZIONECOMUNE": "MONTE SAN GIOVANNI CAMPANO"
            },
            "geometry": {
                "type": "Point",
                "coordinates": [
                    13.5328734,
                    41.6410189
                ]
            }
        },
        {
            "type": "Feature",
            "properties": {
                "CODICEISTITUTORIFERIMENTO": "RMIC8DU00N",
                "DESCRIZIONETIPOLOGIAGRADOISTRUZIONESCUOLA": "SCUOLA INFANZIA",
                "DESCRIZIONECOMUNE": "GUIDONIA MONTECELIO"
            },
            "geometry": {
                "type": "Point",
                "coordinates": [
                    12.7590943,
                    41.9628368
                ]
            }
        },
        {
            "type": "Feature",
            "properties": {
                "CODICEISTITUTORIFERIMENTO": "RMIC8D000A",
                "DESCRIZIONETIPOLOGIAGRADOISTRUZIONESCUOLA": "SCUOLA INFANZIA",
                "DESCRIZIONECOMUNE": "NETTUNO"
            },
            "geometry": {
                "type": "Point",
                "coordinates": [
                    12.6521718,
                    41.4661413
                ]
            }
        },
        {
            "type": "Feature",
            "properties": {
                "CODICEISTITUTORIFERIMENTO": "RMIC8EJ00R",
                "DESCRIZIONETIPOLOGIAGRADOISTRUZIONESCUOLA": "SCUOLA PRIMARIA",
                "DESCRIZIONECOMUNE": "ROMA"
            },
            "geometry": {
                "type": "Point",
                "coordinates": [
                    12.5434099,
                    41.9498108
                ]
            }
        },
        {
            "type": "Feature",
            "properties": {
                "CODICEISTITUTORIFERIMENTO": "RIIC806008",
                "DESCRIZIONETIPOLOGIAGRADOISTRUZIONESCUOLA": "SCUOLA INFANZIA",
                "DESCRIZIONECOMUNE": "COLLI SUL VELINO"
            },
            "geometry": {
                "type": "Point",
                "coordinates": [
                    12.779282,
                    42.4989604
                ]
            }
        },
        {
            "type": "Feature",
            "properties": {
                "CODICEISTITUTORIFERIMENTO": "RMIC8FC003",
                "DESCRIZIONETIPOLOGIAGRADOISTRUZIONESCUOLA": "SCUOLA INFANZIA",
                "DESCRIZIONECOMUNE": "ROMA"
            },
            "geometry": {
                "type": "Point",
                "coordinates": [
                    12.6200513,
                    41.88696729999999
                ]
            }
        },
        {
            "type": "Feature",
            "properties": {
                "CODICEISTITUTORIFERIMENTO": "RMIC8AW00A",
                "DESCRIZIONETIPOLOGIAGRADOISTRUZIONESCUOLA": "SCUOLA PRIMO GRADO",
                "DESCRIZIONECOMUNE": "MORICONE"
            },
            "geometry": {
                "type": "Point",
                "coordinates": [
                    12.7742459,
                    42.1151484
                ]
            }
        },
        {
            "type": "Feature",
            "properties": {
                "CODICEISTITUTORIFERIMENTO": "LTIC855001",
                "DESCRIZIONETIPOLOGIAGRADOISTRUZIONESCUOLA": "SCUOLA INFANZIA",
                "DESCRIZIONECOMUNE": "MINTURNO"
            },
            "geometry": {
                "type": "Point",
                "coordinates": [
                    13.7246579,
                    41.2618114
                ]
            }
        },
        {
            "type": "Feature",
            "properties": {
                "CODICEISTITUTORIFERIMENTO": "RMIC86600E",
                "DESCRIZIONETIPOLOGIAGRADOISTRUZIONESCUOLA": "SCUOLA PRIMO GRADO",
                "DESCRIZIONECOMUNE": "MAZZANO ROMANO"
            },
            "geometry": {
                "type": "Point",
                "coordinates": [
                    12.3977522,
                    42.2039359
                ]
            }
        },
        {
            "type": "Feature",
            "properties": {
                "CODICEISTITUTORIFERIMENTO": "RMIC8AK00E",
                "DESCRIZIONETIPOLOGIAGRADOISTRUZIONESCUOLA": "SCUOLA PRIMARIA",
                "DESCRIZIONECOMUNE": "PALOMBARA SABINA"
            },
            "geometry": {
                "type": "Point",
                "coordinates": [
                    12.7640502,
                    42.0697914
                ]
            }
        },
        {
            "type": "Feature",
            "properties": {
                "CODICEISTITUTORIFERIMENTO": "RIIC81100Q",
                "DESCRIZIONETIPOLOGIAGRADOISTRUZIONESCUOLA": "ISTITUTO COMPRENSIVO",
                "DESCRIZIONECOMUNE": "AMATRICE"
            },
            "geometry": {
                "type": "Point",
                "coordinates": [
                    13.2913243,
                    42.62740609999999
                ]
            }
        },
        {
            "type": "Feature",
            "properties": {
                "CODICEISTITUTORIFERIMENTO": "RMIC8DL00T",
                "DESCRIZIONETIPOLOGIAGRADOISTRUZIONESCUOLA": "SCUOLA INFANZIA",
                "DESCRIZIONECOMUNE": "FIUMICINO"
            },
            "geometry": {
                "type": "Point",
                "coordinates": [
                    12.2318119,
                    41.7736089
                ]
            }
        },
        {
            "type": "Feature",
            "properties": {
                "CODICEISTITUTORIFERIMENTO": "RIIC82500N",
                "DESCRIZIONETIPOLOGIAGRADOISTRUZIONESCUOLA": "SCUOLA PRIMARIA",
                "DESCRIZIONECOMUNE": "POGGIO MIRTETO"
            },
            "geometry": {
                "type": "Point",
                "coordinates": [
                    12.6354973,
                    42.2464462
                ]
            }
        },
        {
            "type": "Feature",
            "properties": {
                "CODICEISTITUTORIFERIMENTO": "VTIC812008",
                "DESCRIZIONETIPOLOGIAGRADOISTRUZIONESCUOLA": "SCUOLA PRIMO GRADO",
                "DESCRIZIONECOMUNE": "CAPRAROLA"
            },
            "geometry": {
                "type": "Point",
                "coordinates": [
                    12.2430942,
                    42.3236181
                ]
            }
        },
        {
            "type": "Feature",
            "properties": {
                "CODICEISTITUTORIFERIMENTO": "RMIC8G7001",
                "DESCRIZIONETIPOLOGIAGRADOISTRUZIONESCUOLA": "SCUOLA INFANZIA",
                "DESCRIZIONECOMUNE": "POMEZIA"
            },
            "geometry": {
                "type": "Point",
                "coordinates": [
                    12.5508891,
                    41.6677008
                ]
            }
        },
        {
            "type": "Feature",
            "properties": {
                "CODICEISTITUTORIFERIMENTO": "RMIC81400T",
                "DESCRIZIONETIPOLOGIAGRADOISTRUZIONESCUOLA": "SCUOLA INFANZIA",
                "DESCRIZIONECOMUNE": "ROMA"
            },
            "geometry": {
                "type": "Point",
                "coordinates": [
                    12.507151,
                    41.8923128
                ]
            }
        },
        {
            "type": "Feature",
            "properties": {
                "CODICEISTITUTORIFERIMENTO": "RMIC812006",
                "DESCRIZIONETIPOLOGIAGRADOISTRUZIONESCUOLA": "SCUOLA PRIMO GRADO",
                "DESCRIZIONECOMUNE": "ROMA"
            },
            "geometry": {
                "type": "Point",
                "coordinates": [
                    12.5164602,
                    41.9702515
                ]
            }
        },
        {
            "type": "Feature",
            "properties": {
                "CODICEISTITUTORIFERIMENTO": "FRIC81600P",
                "DESCRIZIONETIPOLOGIAGRADOISTRUZIONESCUOLA": "SCUOLA PRIMARIA",
                "DESCRIZIONECOMUNE": "STRANGOLAGALLI"
            },
            "geometry": {
                "type": "Point",
                "coordinates": [
                    13.4899822,
                    41.6005075
                ]
            }
        },
        {
            "type": "Feature",
            "properties": {
                "CODICEISTITUTORIFERIMENTO": "RMIC8B1001",
                "DESCRIZIONETIPOLOGIAGRADOISTRUZIONESCUOLA": "ISTITUTO COMPRENSIVO",
                "DESCRIZIONECOMUNE": "ROMA"
            },
            "geometry": {
                "type": "Point",
                "coordinates": [
                    12.4749853,
                    41.7686852
                ]
            }
        },
        {
            "type": "Feature",
            "properties": {
                "CODICEISTITUTORIFERIMENTO": "LTIC83600G",
                "DESCRIZIONETIPOLOGIAGRADOISTRUZIONESCUOLA": "ISTITUTO COMPRENSIVO",
                "DESCRIZIONECOMUNE": "PRIVERNO"
            },
            "geometry": {
                "type": "Point",
                "coordinates": [
                    13.1766604,
                    41.47593579999999
                ]
            }
        },
        {
            "type": "Feature",
            "properties": {
                "CODICEISTITUTORIFERIMENTO": "LTIC84800T",
                "DESCRIZIONETIPOLOGIAGRADOISTRUZIONESCUOLA": "SCUOLA PRIMARIA",
                "DESCRIZIONECOMUNE": "LATINA"
            },
            "geometry": {
                "type": "Point",
                "coordinates": [
                    12.8878711,
                    41.451863
                ]
            }
        },
        {
            "type": "Feature",
            "properties": {
                "CODICEISTITUTORIFERIMENTO": "FRIC851002",
                "DESCRIZIONETIPOLOGIAGRADOISTRUZIONESCUOLA": "SCUOLA PRIMARIA",
                "DESCRIZIONECOMUNE": "SORA"
            },
            "geometry": {
                "type": "Point",
                "coordinates": [
                    13.6194396,
                    41.7254668
                ]
            }
        },
        {
            "type": "Feature",
            "properties": {
                "CODICEISTITUTORIFERIMENTO": "RMIC841006",
                "DESCRIZIONETIPOLOGIAGRADOISTRUZIONESCUOLA": "SCUOLA INFANZIA",
                "DESCRIZIONECOMUNE": "ROMA"
            },
            "geometry": {
                "type": "Point",
                "coordinates": [
                    12.3530131,
                    41.7831453
                ]
            }
        },
        {
            "type": "Feature",
            "properties": {
                "CODICEISTITUTORIFERIMENTO": "RMIC8AL00A",
                "DESCRIZIONETIPOLOGIAGRADOISTRUZIONESCUOLA": "SCUOLA PRIMARIA",
                "DESCRIZIONECOMUNE": "LICENZA"
            },
            "geometry": {
                "type": "Point",
                "coordinates": [
                    12.9013033,
                    42.0740648
                ]
            }
        },
        {
            "type": "Feature",
            "properties": {
                "CODICEISTITUTORIFERIMENTO": "RMIC8DT00T",
                "DESCRIZIONETIPOLOGIAGRADOISTRUZIONESCUOLA": "SCUOLA PRIMARIA",
                "DESCRIZIONECOMUNE": "GUIDONIA MONTECELIO"
            },
            "geometry": {
                "type": "Point",
                "coordinates": [
                    12.7583891,
                    41.9699579
                ]
            }
        },
        {
            "type": "Feature",
            "properties": {
                "CODICEISTITUTORIFERIMENTO": "RMIC8GJ002",
                "DESCRIZIONETIPOLOGIAGRADOISTRUZIONESCUOLA": "ISTITUTO COMPRENSIVO",
                "DESCRIZIONECOMUNE": "BRACCIANO"
            },
            "geometry": {
                "type": "Point",
                "coordinates": [
                    12.1747502,
                    42.1021626
                ]
            }
        },
        {
            "type": "Feature",
            "properties": {
                "CODICEISTITUTORIFERIMENTO": "RMIC884004",
                "DESCRIZIONETIPOLOGIAGRADOISTRUZIONESCUOLA": "ISTITUTO COMPRENSIVO",
                "DESCRIZIONECOMUNE": "MONTEROTONDO"
            },
            "geometry": {
                "type": "Point",
                "coordinates": [
                    12.6219516,
                    42.059449
                ]
            }
        },
        {
            "type": "Feature",
            "properties": {
                "CODICEISTITUTORIFERIMENTO": "VTIC81100C",
                "DESCRIZIONETIPOLOGIAGRADOISTRUZIONESCUOLA": "SCUOLA PRIMARIA",
                "DESCRIZIONECOMUNE": "SUTRI"
            },
            "geometry": {
                "type": "Point",
                "coordinates": [
                    12.2199491,
                    42.2433609
                ]
            }
        },
        {
            "type": "Feature",
            "properties": {
                "CODICEISTITUTORIFERIMENTO": "RMIC8D2002",
                "DESCRIZIONETIPOLOGIAGRADOISTRUZIONESCUOLA": "SCUOLA PRIMARIA",
                "DESCRIZIONECOMUNE": "NETTUNO"
            },
            "geometry": {
                "type": "Point",
                "coordinates": [
                    12.6476111,
                    41.4605819
                ]
            }
        },
        {
            "type": "Feature",
            "properties": {
                "CODICEISTITUTORIFERIMENTO": "RMIC876005",
                "DESCRIZIONETIPOLOGIAGRADOISTRUZIONESCUOLA": "SCUOLA PRIMARIA",
                "DESCRIZIONECOMUNE": "RIANO"
            },
            "geometry": {
                "type": "Point",
                "coordinates": [
                    12.5068992,
                    42.1008251
                ]
            }
        },
        {
            "type": "Feature",
            "properties": {
                "CODICEISTITUTORIFERIMENTO": "RMIC8AK00E",
                "DESCRIZIONETIPOLOGIAGRADOISTRUZIONESCUOLA": "SCUOLA INFANZIA",
                "DESCRIZIONECOMUNE": "PALOMBARA SABINA"
            },
            "geometry": {
                "type": "Point",
                "coordinates": [
                    12.7666451,
                    42.0707272
                ]
            }
        },
        {
            "type": "Feature",
            "properties": {
                "CODICEISTITUTORIFERIMENTO": "RMIC8G7001",
                "DESCRIZIONETIPOLOGIAGRADOISTRUZIONESCUOLA": "SCUOLA INFANZIA",
                "DESCRIZIONECOMUNE": "POMEZIA"
            },
            "geometry": {
                "type": "Point",
                "coordinates": [
                    12.5261672,
                    41.6457316
                ]
            }
        },
        {
            "type": "Feature",
            "properties": {
                "CODICEISTITUTORIFERIMENTO": "LTIC804004",
                "DESCRIZIONETIPOLOGIAGRADOISTRUZIONESCUOLA": "SCUOLA INFANZIA",
                "DESCRIZIONECOMUNE": "LATINA"
            },
            "geometry": {
                "type": "Point",
                "coordinates": [
                    12.9028558,
                    41.4674949
                ]
            }
        },
        {
            "type": "Feature",
            "properties": {
                "CODICEISTITUTORIFERIMENTO": "RMIC8BA001",
                "DESCRIZIONETIPOLOGIAGRADOISTRUZIONESCUOLA": "SCUOLA INFANZIA",
                "DESCRIZIONECOMUNE": "GENZANO DI ROMA"
            },
            "geometry": {
                "type": "Point",
                "coordinates": [
                    12.7145172,
                    41.650303
                ]
            }
        },
        {
            "type": "Feature",
            "properties": {
                "CODICEISTITUTORIFERIMENTO": "RMIC8DH001",
                "DESCRIZIONETIPOLOGIAGRADOISTRUZIONESCUOLA": "SCUOLA PRIMARIA",
                "DESCRIZIONECOMUNE": "FIUMICINO"
            },
            "geometry": {
                "type": "Point",
                "coordinates": [
                    12.209692,
                    41.8471435
                ]
            }
        },
        {
            "type": "Feature",
            "properties": {
                "CODICEISTITUTORIFERIMENTO": "RMIC89400P",
                "DESCRIZIONETIPOLOGIAGRADOISTRUZIONESCUOLA": "ISTITUTO COMPRENSIVO",
                "DESCRIZIONECOMUNE": "TOLFA"
            },
            "geometry": {
                "type": "Point",
                "coordinates": [
                    11.9362193,
                    42.1494495
                ]
            }
        },
        {
            "type": "Feature",
            "properties": {
                "CODICEISTITUTORIFERIMENTO": "RMIC8EH00G",
                "DESCRIZIONETIPOLOGIAGRADOISTRUZIONESCUOLA": "SCUOLA INFANZIA",
                "DESCRIZIONECOMUNE": "ROMA"
            },
            "geometry": {
                "type": "Point",
                "coordinates": [
                    12.5451224,
                    41.9436162
                ]
            }
        },
        {
            "type": "Feature",
            "properties": {
                "CODICEISTITUTORIFERIMENTO": "RIIC806008",
                "DESCRIZIONETIPOLOGIAGRADOISTRUZIONESCUOLA": "SCUOLA INFANZIA",
                "DESCRIZIONECOMUNE": "LEONESSA"
            },
            "geometry": {
                "type": "Point",
                "coordinates": [
                    12.9631842,
                    42.5666655
                ]
            }
        },
        {
            "type": "Feature",
            "properties": {
                "CODICEISTITUTORIFERIMENTO": "FRIC85200T",
                "DESCRIZIONETIPOLOGIAGRADOISTRUZIONESCUOLA": "SCUOLA INFANZIA",
                "DESCRIZIONECOMUNE": "PICO"
            },
            "geometry": {
                "type": "Point",
                "coordinates": [
                    13.5582757,
                    41.450652
                ]
            }
        },
        {
            "type": "Feature",
            "properties": {
                "CODICEISTITUTORIFERIMENTO": "RMIC8EM008",
                "DESCRIZIONETIPOLOGIAGRADOISTRUZIONESCUOLA": "ISTITUTO COMPRENSIVO",
                "DESCRIZIONECOMUNE": "ROMA"
            },
            "geometry": {
                "type": "Point",
                "coordinates": [
                    12.5514484,
                    41.9030909
                ]
            }
        },
        {
            "type": "Feature",
            "properties": {
                "CODICEISTITUTORIFERIMENTO": "RMIC8AW00A",
                "DESCRIZIONETIPOLOGIAGRADOISTRUZIONESCUOLA": "SCUOLA PRIMO GRADO",
                "DESCRIZIONECOMUNE": "MONTELIBRETTI"
            },
            "geometry": {
                "type": "Point",
                "coordinates": [
                    12.734593,
                    42.1381851
                ]
            }
        },
        {
            "type": "Feature",
            "properties": {
                "CODICEISTITUTORIFERIMENTO": "RMIC8FF00E",
                "DESCRIZIONETIPOLOGIAGRADOISTRUZIONESCUOLA": "SCUOLA INFANZIA",
                "DESCRIZIONECOMUNE": "ROMA"
            },
            "geometry": {
                "type": "Point",
                "coordinates": [
                    12.4884848,
                    41.8476028
                ]
            }
        },
        {
            "type": "Feature",
            "properties": {
                "CODICEISTITUTORIFERIMENTO": "RMIC8C9006",
                "DESCRIZIONETIPOLOGIAGRADOISTRUZIONESCUOLA": "SCUOLA PRIMO GRADO",
                "DESCRIZIONECOMUNE": "ARDEA"
            },
            "geometry": {
                "type": "Point",
                "coordinates": [
                    12.5372246,
                    41.6136868
                ]
            }
        },
        {
            "type": "Feature",
            "properties": {
                "CODICEISTITUTORIFERIMENTO": "RMIC8AK00E",
                "DESCRIZIONETIPOLOGIAGRADOISTRUZIONESCUOLA": "ISTITUTO COMPRENSIVO",
                "DESCRIZIONECOMUNE": "PALOMBARA SABINA"
            },
            "geometry": {
                "type": "Point",
                "coordinates": [
                    12.7637677,
                    42.0700916
                ]
            }
        },
        {
            "type": "Feature",
            "properties": {
                "CODICEISTITUTORIFERIMENTO": "RMIC8B1001",
                "DESCRIZIONETIPOLOGIAGRADOISTRUZIONESCUOLA": "SCUOLA PRIMARIA",
                "DESCRIZIONECOMUNE": "ROMA"
            },
            "geometry": {
                "type": "Point",
                "coordinates": [
                    12.4749853,
                    41.7686852
                ]
            }
        },
        {
            "type": "Feature",
            "properties": {
                "CODICEISTITUTORIFERIMENTO": "FRIC85800R",
                "DESCRIZIONETIPOLOGIAGRADOISTRUZIONESCUOLA": "SCUOLA PRIMO GRADO",
                "DESCRIZIONECOMUNE": "CECCANO"
            },
            "geometry": {
                "type": "Point",
                "coordinates": [
                    13.3382415,
                    41.5648144
                ]
            }
        },
        {
            "type": "Feature",
            "properties": {
                "CODICEISTITUTORIFERIMENTO": "RIIC81100Q",
                "DESCRIZIONETIPOLOGIAGRADOISTRUZIONESCUOLA": "SCUOLA PRIMARIA",
                "DESCRIZIONECOMUNE": "AMATRICE"
            },
            "geometry": {
                "type": "Point",
                "coordinates": [
                    13.2913243,
                    42.62740609999999
                ]
            }
        },
        {
            "type": "Feature",
            "properties": {
                "CODICEISTITUTORIFERIMENTO": "RIIC82500N",
                "DESCRIZIONETIPOLOGIAGRADOISTRUZIONESCUOLA": "SCUOLA INFANZIA",
                "DESCRIZIONECOMUNE": "POGGIO MIRTETO"
            },
            "geometry": {
                "type": "Point",
                "coordinates": [
                    12.6517308,
                    42.2601082
                ]
            }
        },
        {
            "type": "Feature",
            "properties": {
                "CODICEISTITUTORIFERIMENTO": "LTIC855001",
                "DESCRIZIONETIPOLOGIAGRADOISTRUZIONESCUOLA": "SCUOLA PRIMARIA",
                "DESCRIZIONECOMUNE": "MINTURNO"
            },
            "geometry": {
                "type": "Point",
                "coordinates": [
                    13.701861,
                    41.2561327
                ]
            }
        },
        {
            "type": "Feature",
            "properties": {
                "CODICEISTITUTORIFERIMENTO": "RMIC8DT00T",
                "DESCRIZIONETIPOLOGIAGRADOISTRUZIONESCUOLA": "SCUOLA PRIMARIA",
                "DESCRIZIONECOMUNE": "GUIDONIA MONTECELIO"
            },
            "geometry": {
                "type": "Point",
                "coordinates": [
                    12.7593202,
                    41.9630357
                ]
            }
        },
        {
            "type": "Feature",
            "properties": {
                "CODICEISTITUTORIFERIMENTO": "RMIC8CS00B",
                "DESCRIZIONETIPOLOGIAGRADOISTRUZIONESCUOLA": "SCUOLA INFANZIA",
                "DESCRIZIONECOMUNE": "ROMA"
            },
            "geometry": {
                "type": "Point",
                "coordinates": [
                    12.6694874,
                    41.92419110000001
                ]
            }
        },
        {
            "type": "Feature",
            "properties": {
                "CODICEISTITUTORIFERIMENTO": "RMIC813002",
                "DESCRIZIONETIPOLOGIAGRADOISTRUZIONESCUOLA": "SCUOLA PRIMO GRADO",
                "DESCRIZIONECOMUNE": "ROMA"
            },
            "geometry": {
                "type": "Point",
                "coordinates": [
                    12.5370671,
                    41.9421051
                ]
            }
        },
        {
            "type": "Feature",
            "properties": {
                "CODICEISTITUTORIFERIMENTO": "RMIC88500X",
                "DESCRIZIONETIPOLOGIAGRADOISTRUZIONESCUOLA": "SCUOLA PRIMO GRADO",
                "DESCRIZIONECOMUNE": "FORMELLO"
            },
            "geometry": {
                "type": "Point",
                "coordinates": [
                    12.3951969,
                    42.0740888
                ]
            }
        },
        {
            "type": "Feature",
            "properties": {
                "CODICEISTITUTORIFERIMENTO": "LTIC84800T",
                "DESCRIZIONETIPOLOGIAGRADOISTRUZIONESCUOLA": "SCUOLA PRIMO GRADO",
                "DESCRIZIONECOMUNE": "LATINA"
            },
            "geometry": {
                "type": "Point",
                "coordinates": [
                    12.8931776,
                    41.4510543
                ]
            }
        },
        {
            "type": "Feature",
            "properties": {
                "CODICEISTITUTORIFERIMENTO": "VTIC81100C",
                "DESCRIZIONETIPOLOGIAGRADOISTRUZIONESCUOLA": "SCUOLA PRIMO GRADO",
                "DESCRIZIONECOMUNE": "MONTEROSI"
            },